City_ID,City,Country,Lat,Lng,Max Temp,Humidity,Cloudiness,Wind Speed,Description
0,Qaanaaq,GL,77.484,-69.3632,-26.12,83,9,6.26,clear sky
1,Ponta Do Sol,PT,32.6667,-17.1,75.0,68,17,6.62,few clouds
2,Barrow,US,71.2906,-156.7887,17.62,79,100,8.05,overcast clouds
3,Blackwater,AU,-23.5833,148.8833,61.3,81,0,7.4,clear sky
4,Jizan,SA,17.3333,42.6667,82.92,63,0,8.63,clear sky
5,Adre,TD,13.4667,22.2,88.9,19,95,5.48,overcast clouds
6,East London,ZA,-33.0153,27.9116,72.54,83,20,12.66,few clouds
7,Albany,US,42.6001,-73.9662,35.92,51,5,5.99,clear sky
8,Akyab,MM,20.15,92.9,79.5,76,0,11.92,clear sky
9,Kaeo,NZ,-35.1,173.7833,57.33,91,89,5.06,overcast clouds
10,Kapaa,US,22.0752,-159.319,73.72,86,20,8.05,light rain
11,Simao,CN,22.7886,100.9748,58.6,97,4,2.68,clear sky
12,Kodiak,US,57.79,-152.4072,40.51,52,0,33.38,clear sky
13,Saint Anthony,US,45.0205,-93.218,18.28,76,0,14.97,clear sky
14,Shimoda,JP,34.6667,138.95,50.11,80,98,5.82,overcast clouds
15,Cabo San Lucas,MX,22.8909,-109.9124,74.52,74,0,1.99,clear sky
16,Carnarvon,AU,-24.8667,113.6333,69.89,75,2,16.71,clear sky
17,Belton,US,38.812,-94.5319,34.36,62,0,16.11,clear sky
18,Thompson,CA,55.7435,-97.8558,-13.27,91,100,2.42,overcast clouds
19,Mataura,NZ,-46.1927,168.8643,50.49,92,77,5.66,light rain
20,Avarua,CK,-21.2078,-159.775,77.05,88,75,13.8,broken clouds
21,Kaitangata,NZ,-46.2817,169.8464,47.05,75,44,11.41,scattered clouds
22,Ribeira Grande,PT,38.5167,-28.7,64.78,94,75,13.8,mist
23,Ushuaia,AR,-54.8,-68.3,58.66,44,40,19.57,scattered clouds
24,Tuktoyaktuk,CA,69.4541,-133.0374,-11.2,84,40,5.75,scattered clouds
25,Xuddur,SO,4.1213,43.8894,84.63,32,76,9.42,broken clouds
26,Castro,BR,-24.7911,-50.0119,76.59,63,12,8.5,few clouds
27,Kampot,KH,10.6167,104.1833,77.05,85,100,3.44,overcast clouds
28,Erenhot,CN,43.6475,111.9767,5.86,67,12,9.51,few clouds
29,Sikonge,TZ,-5.6333,32.7667,70.38,82,90,7.36,light rain
30,Villa Del Rosario,CO,7.8339,-72.4742,71.98,100,75,2.3,fog
31,Yangambi,CD,0.8102,24.4336,78.82,79,91,2.26,light rain
32,New Norfolk,AU,-42.7826,147.0587,51.3,66,58,1.1,broken clouds
33,Atuona,PF,-9.8,-139.0333,76.77,81,20,14.56,light rain
34,Saint-Philippe,RE,-21.3585,55.7679,78.39,78,53,5.61,broken clouds
35,Hobart,AU,-42.8794,147.3294,51.66,76,100,0.0,overcast clouds
36,Vaini,TO,-21.2,-175.2,78.19,84,74,8.57,light rain
37,Riyadh,SA,24.6877,46.7219,73.54,25,82,5.86,broken clouds
38,Labuhan,ID,-6.8844,112.2051,79.21,76,98,4.29,light rain
39,Kieta,PG,-6.2167,155.6333,78.17,87,100,4.05,overcast clouds
40,Severo-Kurilsk,RU,50.6789,156.125,26.82,61,87,15.35,overcast clouds
41,Yellowknife,CA,62.456,-114.3525,-17.45,75,100,4.0,overcast clouds
42,Porto Walter,BR,-8.2686,-72.7439,93.38,42,30,8.03,scattered clouds
43,Cape Town,ZA,-33.9258,18.4232,77.41,62,20,16.11,few clouds
44,Geraldton,AU,-28.7667,114.6,63.01,77,40,8.05,scattered clouds
45,Takoradi,GH,4.8845,-1.7554,84.15,68,100,9.55,overcast clouds
46,Tambacounda,SN,13.7539,-13.7586,100.45,19,0,4.61,clear sky
47,Pevek,RU,69.7008,170.3133,27.81,77,75,28.19,broken clouds
48,Paamiut,GL,61.994,-49.6678,16.83,72,19,17.22,few clouds
49,Bambous Virieux,MU,-20.3428,57.7575,77.25,73,40,4.61,scattered clouds
50,Iqaluit,CA,63.7506,-68.5145,6.53,71,100,12.66,light snow
51,Villa Union,MX,23.2,-106.2333,75.02,94,0,0.0,clear sky
52,Matara,LK,5.9485,80.5353,76.84,89,93,5.53,overcast clouds
53,Guerrero,MX,17.6667,-100.0,69.87,71,80,3.18,broken clouds
54,Constitucion,CL,-35.3333,-72.4167,65.66,49,0,11.03,clear sky
55,Dikson,RU,73.5069,80.5464,22.86,95,100,19.66,light snow
56,Belluno,IT,46.145,12.2214,48.54,83,37,0.56,scattered clouds
57,Shirokiy,RU,49.758,129.523,-24.05,100,48,4.23,scattered clouds
58,Longyearbyen,SJ,78.2186,15.6401,37.24,81,75,8.05,broken clouds
59,Cherskiy,RU,68.75,161.3,-3.68,98,100,12.1,light snow
60,Arlit,NE,18.7369,7.3853,84.11,11,100,5.01,overcast clouds
61,Nikolskoye,RU,59.7035,30.7861,20.8,86,100,3.42,overcast clouds
62,Flinders,AU,-34.5833,150.8552,64.38,73,67,4.21,broken clouds
63,Busselton,AU,-33.65,115.3333,54.72,90,0,9.46,clear sky
64,Praya,CV,14.9215,-23.5087,81.14,50,0,17.27,clear sky
65,Rikitea,PF,-23.1203,-134.9692,73.65,74,63,10.92,broken clouds
66,Punta Arenas,CL,-53.15,-70.9167,59.11,41,75,39.12,broken clouds
67,Lebu,CL,-37.6167,-73.65,59.85,53,0,15.64,clear sky
68,Obama,JP,35.4958,135.746,45.95,72,100,15.57,overcast clouds
69,Bonfim,BR,3.0833,-59.95,86.5,54,97,10.83,light rain
70,Sanjwal,PK,33.7608,72.4336,60.82,32,100,0.98,overcast clouds
71,Aykhal,RU,66.0,111.5,-25.53,100,100,9.71,overcast clouds
72,Airai,TL,-8.9266,125.4092,60.12,89,100,1.68,overcast clouds
73,Yaan,NG,7.3833,8.5667,96.06,15,80,5.75,broken clouds
74,Esperance,AU,-33.8667,121.9,63.86,93,7,20.02,clear sky
75,Chingola,ZM,-12.529,27.8838,73.44,63,62,3.69,broken clouds
76,Mar Del Plata,AR,-38.0023,-57.5575,66.83,92,100,19.57,overcast clouds
77,Ures,MX,29.4333,-110.4,60.85,43,59,4.23,broken clouds
78,Tura,IN,25.5198,90.2201,63.03,89,0,3.71,clear sky
79,Port Hardy,CA,50.6996,-127.4199,21.38,93,75,4.61,broken clouds
80,Tezu,IN,27.9167,96.1667,65.17,48,0,4.52,clear sky
81,Daru,PG,-9.0763,143.2092,77.85,89,100,6.8,light rain
82,Dali,CN,25.7,100.1833,51.26,89,0,4.83,clear sky
83,Lermontov,RU,44.1067,42.9733,31.42,93,100,15.66,light intensity drizzle
84,Krasnoselkup,RU,65.7,82.4667,-1.86,97,100,10.29,overcast clouds
85,Ambilobe,MG,-13.2,49.05,78.69,77,87,4.43,moderate rain
86,Puerto Ayora,EC,-0.7393,-90.3518,75.16,85,85,11.01,overcast clouds
87,Provideniya,RU,64.3833,-173.3,30.51,97,88,8.63,light snow
88,Port Augusta,AU,-32.5,137.7667,67.21,43,8,6.55,clear sky
89,Bluff,NZ,-46.6,168.3333,50.81,65,47,21.63,scattered clouds
90,Piacabucu,BR,-10.4056,-36.4344,82.56,69,100,15.61,overcast clouds
91,Port Arthur,CN,38.8,121.2667,26.82,43,48,14.67,scattered clouds
92,Pisco,PE,-13.7,-76.2167,71.65,68,0,6.91,clear sky
93,Knoxville,US,35.9606,-83.9207,39.67,52,0,11.5,clear sky
94,Souillac,MU,-20.5167,57.5167,77.38,73,40,4.61,scattered clouds
95,North Bend,US,43.4065,-124.2243,38.86,97,100,9.22,overcast clouds
96,Chuy,UY,-33.6971,-53.4616,77.92,74,86,10.27,overcast clouds
97,Mehamn,NO,71.0357,27.8492,33.75,86,100,8.05,overcast clouds
98,Sindor,RU,62.8629,51.8905,-1.68,99,70,2.98,broken clouds
99,Fairbanks,US,64.8378,-147.7164,5.59,84,100,0.0,light snow
100,Katsuura,JP,35.1333,140.3,52.43,85,100,11.25,overcast clouds
101,Saint-Augustin,CA,51.226,-58.6502,36.28,98,100,19.39,moderate rain
102,Te Anau,NZ,-45.4167,167.7167,39.94,90,74,1.5,broken clouds
103,Camacha,PT,33.0833,-16.3333,65.62,68,40,18.41,scattered clouds
104,Okhotsk,RU,59.3833,143.3,-3.66,99,100,9.33,overcast clouds
105,Punta Alta,AR,-38.8759,-62.0736,73.54,47,1,12.06,clear sky
106,Khammam,IN,17.25,80.15,75.27,66,4,2.89,clear sky
107,Hermanus,ZA,-34.4187,19.2345,71.8,77,87,12.5,overcast clouds
108,Biak,ID,-0.9131,122.8766,76.26,79,76,2.51,broken clouds
109,Makarov,RU,48.6333,142.8,8.31,77,90,10.16,overcast clouds
110,Raga,SS,8.4596,25.678,94.33,18,100,7.23,overcast clouds
111,Jamestown,US,42.097,-79.2353,29.79,91,100,11.5,mist
112,Ancud,CL,-41.8697,-73.8203,52.59,59,69,5.91,broken clouds
113,Aldan,RU,58.6031,125.3894,-12.57,96,100,10.45,overcast clouds
114,Andenes,NO,69.3143,16.1194,39.18,87,100,6.91,overcast clouds
115,Las Vegas,US,36.175,-115.1372,44.67,49,0,0.0,clear sky
116,Upernavik,GL,72.7868,-56.1549,3.25,93,100,20.02,overcast clouds
117,Kiunga,PG,-6.1219,141.2906,73.02,99,100,3.8,light rain
118,Tandil,AR,-37.3217,-59.1332,68.85,61,98,14.36,overcast clouds
119,Victoria,HK,22.2855,114.1577,61.25,76,86,15.01,overcast clouds
120,Monrovia,LR,6.3005,-10.7969,83.97,67,86,6.8,overcast clouds
121,Oranjestad,AW,12.524,-70.027,83.91,74,20,13.8,few clouds
122,Kahului,US,20.8947,-156.47,74.84,89,20,8.05,few clouds
123,Kavaratti,IN,10.5669,72.642,81.86,72,31,3.94,scattered clouds
124,Kangaatsiaq,GL,68.3065,-53.4641,19.44,65,100,25.7,overcast clouds
125,Norman Wells,CA,65.282,-126.8329,-7.56,84,100,3.44,light snow
126,Salalah,OM,17.0151,54.0924,78.89,73,20,4.61,few clouds
127,Tiksi,RU,71.6872,128.8694,-11.92,96,100,13.76,overcast clouds
128,Anapskaya,RU,44.89,37.38,44.83,70,0,17.9,clear sky
129,Kerman,IR,30.2832,57.0788,55.26,33,0,9.22,clear sky
130,Lagoa,PT,39.05,-27.9833,60.44,85,18,29.04,light rain
131,Turukhansk,RU,65.8167,87.9833,-1.73,99,100,6.49,overcast clouds
132,Port-Gentil,GA,-0.7193,8.7815,84.16,79,40,14.97,scattered clouds
133,Yalutorovsk,RU,56.6536,66.3006,5.0,83,100,5.53,overcast clouds
134,Hualmay,PE,-11.0964,-77.6139,71.4,73,7,8.68,clear sky
135,Ayan,RU,56.45,138.1667,-2.49,70,89,16.67,overcast clouds
136,Saint George,US,37.1041,-113.5841,32.59,64,0,0.0,clear sky
137,Port Alfred,ZA,-33.5906,26.891,74.05,81,36,9.22,scattered clouds
138,Saldanha,ZA,-33.0117,17.9442,75.25,75,74,15.77,broken clouds
139,Butaritari,KI,3.0707,172.7902,79.84,81,20,12.75,light rain
140,Garowe,SO,8.4054,48.4845,79.59,60,87,15.26,light rain
141,Aalburg,NL,51.7548,5.1316,45.21,86,100,1.99,overcast clouds
142,Luderitz,NA,-26.6481,15.1594,70.27,67,23,24.61,few clouds
143,Bibiani,GH,6.4635,-2.3194,85.86,54,97,2.71,overcast clouds
144,Prince George,CA,53.9166,-122.753,-13.38,80,0,3.44,clear sky
145,Lata,PT,40.1629,-8.3327,64.08,59,0,6.58,clear sky
146,Waipawa,NZ,-41.4122,175.5153,46.8,77,41,0.6,scattered clouds
147,San Lorenzo,PY,-25.3333,-57.5333,88.74,52,75,3.44,broken clouds
148,Tuatapere,NZ,-46.1333,167.6833,45.1,78,94,9.86,overcast clouds
149,Nome,US,64.5011,-165.4064,21.27,93,75,11.5,broken clouds
150,Comodoro Rivadavia,AR,-45.8667,-67.5,73.26,15,0,18.41,clear sky
151,Korla,CN,41.7597,86.1469,18.81,21,0,2.17,clear sky
152,Ust-Kuyga,RU,70.0167,135.6,-7.62,99,100,3.67,light snow
153,Dunedin,NZ,-45.8742,170.5036,48.79,68,38,8.99,scattered clouds
154,Mgandu,TZ,-5.95,34.1333,65.57,76,97,4.63,light rain
155,Srednekolymsk,RU,67.45,153.6833,-15.97,96,100,17.74,overcast clouds
156,Ilulissat,GL,69.2167,-51.1,19.42,73,75,26.46,light snow
157,Marsh Harbour,BS,26.5412,-77.0636,78.01,71,23,12.95,few clouds
158,Vallenar,CL,-28.5708,-70.7581,74.25,51,17,6.76,few clouds
159,Vitim,RU,59.4511,112.5578,-14.03,97,100,4.18,overcast clouds
160,Jibuti,DJ,11.5,42.5,74.53,56,2,10.6,clear sky
161,Muko,JP,34.9654,135.7041,45.75,64,73,6.33,broken clouds
162,Ahipara,NZ,-35.1667,173.1667,58.59,74,100,10.54,overcast clouds
163,Vysokogornyy,RU,50.1167,139.15,-13.0,94,99,6.31,overcast clouds
164,Bicaz,RO,46.9167,26.0667,29.23,89,100,2.8,overcast clouds
165,Bonga,ET,7.2833,36.2333,68.27,59,99,1.41,overcast clouds
166,Arraial Do Cabo,BR,-22.9661,-42.0278,80.56,83,40,24.16,scattered clouds
167,Clyde River,CA,70.4692,-68.5914,-24.2,82,1,2.37,clear sky
168,Talcahuano,CL,-36.7167,-73.1167,65.88,52,0,8.05,clear sky
169,Kalmunai,LK,7.4167,81.8167,79.11,82,21,5.82,few clouds
170,Sept-Iles,CA,50.2001,-66.3821,34.32,80,75,16.11,broken clouds
171,Oda,JP,35.1833,132.5,45.05,58,100,15.05,overcast clouds
172,Dzhebariki-Khaya,RU,62.2167,135.8,-28.75,99,100,0.89,overcast clouds
173,Khatanga,RU,71.9667,102.5,10.8,94,100,13.29,overcast clouds
174,Anloga,GH,5.7947,0.8973,84.16,66,97,11.52,overcast clouds
175,Prince Rupert,CA,54.3161,-130.3201,24.49,54,0,12.66,clear sky
176,Gat,IL,31.61,34.7642,68.68,32,0,7.92,clear sky
177,Valea Ierii,RO,46.65,23.35,31.03,80,100,2.44,overcast clouds
178,Bredasdorp,ZA,-34.5322,20.0403,75.72,52,44,18.01,scattered clouds
179,Yarmouth,US,41.7057,-70.2286,41.14,49,0,24.0,clear sky
180,Lasa,IT,46.6166,10.7002,45.48,92,95,0.83,overcast clouds
181,Marathon,US,44.9,-89.7668,12.65,84,20,4.61,few clouds
182,Oussouye,SN,12.485,-16.5469,93.38,24,89,7.49,overcast clouds
183,Marang,MY,5.2056,103.2059,75.11,87,100,1.36,overcast clouds
184,Narsaq,GL,60.9167,-46.05,28.62,87,13,3.65,few clouds
185,Sao Filipe,CV,14.8961,-24.4956,76.48,62,51,10.4,broken clouds
186,Port Elizabeth,ZA,-33.918,25.5701,73.09,77,40,14.97,scattered clouds
187,Pundaguitan,PH,6.3711,126.1689,81.23,80,100,12.48,overcast clouds
188,Caldas Novas,BR,-17.7417,-48.625,88.43,39,76,4.09,broken clouds
189,Bethel,US,41.3712,-73.414,39.54,58,100,13.8,overcast clouds
190,Seoul,KR,37.5683,126.9778,24.24,58,0,4.61,clear sky
191,Moncao,PT,42.0789,-8.4808,60.51,66,0,2.55,clear sky
192,Beringovskiy,RU,63.05,179.3167,34.75,99,100,13.8,light snow
193,Carutapera,BR,-1.195,-46.02,86.52,62,40,9.6,scattered clouds
194,Tirukkoyilur,IN,11.95,79.2,75.09,89,96,5.5,overcast clouds
195,Port Lincoln,AU,-34.7333,135.8667,59.22,88,0,14.97,clear sky
196,Chernyshevskiy,RU,63.0128,112.4714,-11.6,94,100,9.51,overcast clouds
197,Kununurra,AU,-15.7667,128.7333,73.38,73,26,3.44,scattered clouds
198,Saskylakh,RU,71.9167,114.0833,-25.82,100,100,5.08,overcast clouds
199,Madimba,TZ,-10.4,40.3333,80.26,72,7,8.63,clear sky
200,Kruisfontein,ZA,-34.0033,24.7314,70.88,50,50,11.32,scattered clouds
201,Hazorasp,UZ,41.3194,61.0742,22.84,50,96,8.01,overcast clouds
202,Mahibadhoo,MV,3.7833,72.9667,81.12,73,64,1.72,broken clouds
203,Hilo,US,19.7297,-155.09,72.25,90,100,5.75,overcast clouds
204,Eyl,SO,7.9803,49.8164,80.24,75,98,19.62,overcast clouds
205,Bahia Blanca,AR,-38.7196,-62.2724,73.29,48,0,1.01,clear sky
206,Marfino,RU,55.7028,37.3822,15.1,85,100,4.47,mist
207,Angoram,PG,-4.0625,144.0661,74.93,98,100,1.1,overcast clouds
208,Klaksvik,FO,62.2266,-6.589,49.12,97,100,5.48,light rain
209,Nandyal,IN,15.4833,78.4833,77.36,67,94,5.99,overcast clouds
210,Uzventis,LT,55.7803,22.6547,23.07,94,100,5.3,overcast clouds
211,Kalmar,SE,56.6616,16.3616,39.15,93,20,4.61,light rain
212,Fortuna,US,40.5982,-124.1573,40.98,96,75,3.44,broken clouds
213,Alofi,NU,-19.0595,-169.9187,69.69,100,56,1.14,broken clouds
214,Chenghai,CN,23.4632,116.768,55.31,88,75,2.24,broken clouds
215,Bilibino,RU,68.0546,166.4372,7.57,96,79,5.64,broken clouds
216,Katobu,ID,-4.9408,122.5276,75.16,93,79,0.27,broken clouds
217,Georgetown,MY,5.4112,100.3354,80.89,86,40,4.61,light rain
218,Gao,ML,16.6362,1.637,90.0,11,98,6.8,overcast clouds
219,Dakar,SN,14.6937,-17.4441,86.88,48,95,21.85,overcast clouds
220,Kiama,AU,-34.6833,150.8667,64.58,79,75,4.14,broken clouds
221,Maldonado,UY,-34.6667,-54.9167,82.22,50,77,4.54,broken clouds
222,Maine-Soroa,NE,13.2114,12.0241,89.1,11,29,5.23,scattered clouds
223,Isangel,VU,-19.55,169.2667,79.12,87,100,8.37,overcast clouds
224,Carlsbad,US,33.1581,-117.3506,57.09,74,100,3.44,overcast clouds
225,Boueni,YT,-12.9025,45.0761,82.38,69,12,5.5,few clouds
226,Pahrump,US,36.2083,-115.9839,45.84,52,42,8.99,scattered clouds
227,Nhulunbuy,AU,-12.2333,136.7667,83.01,78,100,4.61,light rain
228,Cidreira,BR,-30.1811,-50.2056,75.27,82,100,16.49,overcast clouds
229,Jabinyanah,TN,35.035,10.9081,64.2,45,27,10.4,scattered clouds
230,Saint-Pierre,RE,-21.3393,55.4781,78.48,69,0,12.66,clear sky
231,Sechura,PE,-5.5569,-80.8222,74.88,62,54,7.4,broken clouds
232,Fonte Boa,BR,-2.4959,-66.2662,87.66,60,94,4.88,overcast clouds
233,San Quintin,MX,30.4833,-115.95,54.27,76,100,5.26,overcast clouds
234,Salinas,US,36.6777,-121.6555,56.07,74,100,18.41,light rain
235,Vernon,CA,50.2581,-119.2691,16.16,57,99,5.75,overcast clouds
236,Cururupu,BR,-1.8283,-44.8683,86.86,61,45,7.49,scattered clouds
237,Rio Gallegos,AR,-51.6226,-69.2181,64.45,19,100,14.97,overcast clouds
238,Merauke,ID,-8.4667,140.3333,79.18,87,100,12.15,overcast clouds
239,Hede,CN,33.7681,120.2517,33.44,48,100,7.83,overcast clouds
240,Along,IN,28.1667,94.7667,58.53,66,0,2.08,clear sky
241,Byron Bay,AU,-28.65,153.6167,60.94,91,100,18.23,light rain
242,Bengkulu,ID,-3.8004,102.2655,75.92,88,100,1.9,moderate rain
243,Karratha,AU,-20.7377,116.8463,82.87,51,0,13.29,light rain
244,Gunnedah,AU,-30.9833,150.25,56.17,82,12,7.76,few clouds
245,Eldorado,BR,-23.7869,-54.2836,87.24,47,11,3.67,few clouds
246,San Patricio,US,28.017,-97.5169,54.84,69,0,11.39,clear sky
247,Itarema,BR,-2.9248,-39.9167,86.32,56,66,16.08,broken clouds
248,Dukat,RU,62.55,155.55,-15.21,99,85,1.97,overcast clouds
249,Pasighat,IN,28.0667,95.3333,65.23,54,0,4.34,clear sky
250,Port Macquarie,AU,-31.4333,152.9167,58.89,83,100,10.58,overcast clouds
251,Savonlinna,FI,61.8699,28.88,26.65,93,100,1.14,overcast clouds
252,Melenki,RU,55.3343,41.6295,10.8,95,67,1.61,broken clouds
253,Kencong,ID,-8.2833,113.3667,75.56,81,100,0.74,overcast clouds
254,Aquiraz,BR,-3.9014,-38.3911,89.46,58,68,14.7,broken clouds
255,Menzelinsk,RU,55.7271,53.1026,6.76,99,91,3.31,overcast clouds
256,Ribas Do Rio Pardo,BR,-20.4431,-53.7592,97.34,25,100,10.36,overcast clouds
257,Polunochnoye,RU,60.8697,60.4153,-10.01,100,27,1.34,scattered clouds
258,Tasiilaq,GL,65.6145,-37.6368,37.56,80,100,4.38,overcast clouds
259,Lock Haven,US,41.137,-77.4469,35.98,59,82,14.47,broken clouds
260,Pacific Grove,US,36.6177,-121.9166,55.65,78,100,21.0,overcast clouds
261,Tessalit,ML,20.1986,1.0114,84.15,12,99,7.65,overcast clouds
262,Mnogovershinnyy,RU,53.9353,139.9242,-4.61,92,100,13.44,light snow
263,Pampa,US,35.5362,-100.9599,35.64,60,0,21.85,clear sky
264,Mahebourg,MU,-20.4081,57.7,77.29,73,40,4.61,scattered clouds
265,Jiuquan,CN,39.7432,98.5174,17.33,76,99,1.74,overcast clouds
266,Rio Grande,BR,-32.035,-52.0986,86.11,77,74,13.49,broken clouds
267,Floresta,BR,-8.6011,-38.5686,88.68,42,81,9.89,broken clouds
268,Acajutla,SV,13.5928,-89.8275,81.19,61,99,4.9,overcast clouds
269,Lagunas,PE,-5.2269,-75.6753,88.83,55,88,6.06,overcast clouds
270,Imbituba,BR,-28.24,-48.6703,78.85,73,97,13.15,overcast clouds
271,Lompoc,US,34.6391,-120.4579,50.85,92,0,9.22,clear sky
272,Nador,MA,35.174,-2.9287,64.47,67,20,6.91,few clouds
273,Leshukonskoye,RU,64.8989,45.7622,22.71,97,100,3.65,light snow
274,Douentza,ML,14.9951,-2.9517,92.08,9,26,3.76,scattered clouds
275,Jungapeo,MX,19.45,-100.4833,68.81,70,58,3.2,broken clouds
276,Los Llanos De Aridane,ES,28.6585,-17.9182,69.55,75,20,7.0,few clouds
277,Port Hedland,AU,-20.3167,118.5667,80.65,78,0,9.22,clear sky
278,Egvekinot,RU,66.3167,-179.1667,26.47,99,100,11.74,snow
279,Tazovskiy,RU,67.4667,78.7,-5.31,98,96,8.28,overcast clouds
280,Doha,QA,25.2867,51.5333,79.11,57,0,6.91,clear sky
281,Hasaki,JP,35.7333,140.8333,45.28,80,100,11.43,overcast clouds
282,Verkhnyaya Inta,RU,65.9811,60.3094,-7.71,100,72,5.14,broken clouds
283,Da Nang,VN,16.0678,108.2208,76.98,88,75,5.75,broken clouds
284,Boca Do Acre,BR,-8.7522,-67.3978,94.33,42,42,5.82,scattered clouds
285,Portland,US,45.5234,-122.6762,38.61,93,75,9.22,broken clouds
286,Hibbing,US,47.4272,-92.9377,8.38,49,100,5.75,overcast clouds
287,Palembang,ID,-2.9167,104.7458,78.89,94,40,2.3,scattered clouds
288,Neiafu,TO,-18.65,-173.9833,79.48,83,40,6.91,scattered clouds
289,Ravenna,IT,44.4167,11.9833,48.49,79,94,9.86,overcast clouds
290,Hithadhoo,MV,-0.6,73.0833,81.7,64,60,5.12,broken clouds
291,Castrillon,ES,43.3979,-6.7922,52.79,65,1,4.97,clear sky
292,Glendive,US,47.1053,-104.7125,17.19,85,0,4.61,clear sky
293,Xai-Xai,MZ,-25.0519,33.6442,76.24,63,1,10.67,clear sky
294,Creemore,CA,44.327,-80.1075,33.6,80,70,12.66,broken clouds
295,Weinan,CN,34.5036,109.5089,27.0,39,98,4.61,overcast clouds
296,Caravelas,BR,-17.7125,-39.2481,83.8,66,100,8.08,overcast clouds
297,Hurricane,US,37.1753,-113.2899,32.34,54,22,4.41,few clouds
298,Wanning,CN,18.8003,110.3967,70.07,92,100,14.97,overcast clouds
299,Reconquista,AR,-29.15,-59.65,91.2,37,96,12.33,moderate rain
300,Kingaroy,AU,-26.5333,151.8333,55.0,90,99,8.97,overcast clouds
301,Fontem,CM,5.4685,9.8818,76.68,62,100,3.04,light rain
302,Ostrovnoy,RU,68.0531,39.5131,28.4,93,100,7.96,overcast clouds
303,Liverpool,GB,53.4106,-2.9779,44.62,92,75,5.99,mist
304,Dingle,PH,10.9995,122.6711,76.08,94,100,7.49,overcast clouds
305,Bandarbeyla,SO,9.4942,50.8122,79.2,81,63,20.02,broken clouds
306,Shadrinsk,RU,56.0852,63.6335,5.67,88,100,6.82,overcast clouds
307,Hirara,JP,24.8,125.2833,73.53,75,100,24.38,overcast clouds
308,Port Blair,IN,11.6667,92.75,84.24,79,40,2.3,mist
309,Mount Isa,AU,-20.7333,139.5,74.97,29,0,9.22,light rain
310,Leningradskiy,RU,69.3833,178.4167,26.33,76,100,10.74,overcast clouds
311,Burns Lake,CA,54.2331,-125.7533,-26.18,97,8,3.13,clear sky
312,Vung Tau,VN,10.346,107.0843,80.06,83,100,13.18,light rain
313,Aasiaat,GL,68.7098,-52.8699,8.06,79,100,3.67,overcast clouds
314,Muros,ES,42.7762,-9.0603,60.67,66,0,3.0,clear sky
315,Madras,IN,13.0878,80.2785,82.38,83,40,4.61,mist
316,Ilo,PE,-17.6394,-71.3375,72.46,64,0,9.22,clear sky
317,Anchorage,US,61.2181,-149.9003,17.64,89,40,5.75,scattered clouds
318,Shaoxing,CN,30.011,120.5715,33.75,100,100,4.18,snow
319,Bathsheba,BB,13.2167,-59.5167,84.81,65,40,21.85,scattered clouds
320,Ganserndorf,AT,48.3392,16.7202,42.19,77,29,6.2,scattered clouds
321,Alice Springs,AU,-23.7,133.8833,62.15,39,2,0.0,clear sky
322,Havre-Saint-Pierre,CA,50.2334,-63.5986,37.4,93,100,11.5,light rain
323,Tarauaca,BR,-8.1614,-70.7656,91.15,49,100,6.69,overcast clouds
324,Nelson Bay,AU,-32.7167,152.15,66.0,92,100,7.0,light rain
325,Inirida,CO,3.8653,-67.9239,86.14,61,99,1.01,overcast clouds
326,Haapiti,PF,-17.5667,-149.8667,74.93,82,100,15.93,moderate rain
327,Christchurch,NZ,-43.5333,172.6333,50.95,83,75,3.44,broken clouds
328,Faanui,PF,-16.4833,-151.75,78.91,80,72,12.08,light rain
329,Morales,CO,2.757,-76.6172,62.92,92,86,1.39,overcast clouds
330,Grand Gaube,MU,-20.0064,57.6608,77.4,68,45,3.0,scattered clouds
331,Laguna,US,38.421,-121.4238,50.14,84,100,21.85,overcast clouds
332,Darnah,LY,32.767,22.6367,67.64,57,24,10.49,few clouds
333,Baykit,RU,61.67,96.37,-22.11,99,50,3.38,scattered clouds
334,Pavino,RU,59.1139,46.1414,8.94,96,80,1.59,broken clouds
335,Chokurdakh,RU,70.6333,147.9167,0.73,98,100,4.18,light snow
336,Igarka,RU,67.4667,86.5833,3.58,97,100,11.16,overcast clouds
337,Dasuya,IN,31.8183,75.6597,62.51,35,76,1.86,broken clouds
338,Inhambane,MZ,-23.865,35.3833,77.22,70,52,12.5,broken clouds
339,Saint-Claude,FR,46.5,5.8333,37.08,84,91,2.42,overcast clouds
340,Itaituba,BR,-4.2761,-55.9836,87.96,70,75,11.5,broken clouds
341,Churapcha,RU,62.0025,132.4325,-26.27,99,100,1.14,overcast clouds
342,Jijiga,ET,9.35,42.8,70.16,17,42,12.68,scattered clouds
343,Strezhevoy,RU,60.7333,77.5889,-12.37,98,19,5.03,few clouds
344,Henties Bay,NA,-22.116,14.2845,64.85,79,5,17.18,clear sky
345,Yulara,AU,-25.2406,130.9889,78.24,17,1,9.28,clear sky
346,Jinchang,CN,38.4953,102.1739,21.13,50,7,4.72,clear sky
347,Keti Bandar,PK,24.1447,67.4497,76.41,50,0,9.22,clear sky
348,Aklavik,CA,68.2191,-135.0107,5.0,85,100,6.91,light snow
349,Kisesa,TZ,-3.0833,34.15,72.43,59,100,5.77,overcast clouds
350,Ullapool,GB,57.8987,-5.1604,53.35,91,100,5.64,overcast clouds
351,Mount Gambier,AU,-37.8333,140.7667,48.34,94,10,6.22,clear sky
352,Vestmannaeyjar,IS,63.4427,-20.2734,40.19,87,75,33.38,broken clouds
353,Dobson,US,36.3957,-80.7226,40.66,39,0,9.22,clear sky
354,Hofn,IS,64.2539,-15.2082,42.82,87,100,9.22,overcast clouds
355,Sambava,MG,-14.2667,50.1667,77.79,79,16,5.79,few clouds
356,Zheleznodorozhnyy,RU,55.7503,38.0042,15.37,95,100,3.33,overcast clouds
357,Kabompo,ZM,-13.5927,24.2008,80.64,47,72,2.26,broken clouds
358,Zhangye,CN,38.9342,100.4517,16.34,59,36,5.61,scattered clouds
359,Kudahuvadhoo,MV,2.6708,72.8944,80.49,73,67,3.69,broken clouds
360,Diplo,PK,24.4667,69.584,69.21,37,0,4.68,clear sky
361,Andros Town,BS,24.7,-77.7667,82.36,71,29,14.72,scattered clouds
362,Robertsport,LR,6.7533,-11.3686,83.23,68,94,6.82,overcast clouds
363,Nuuk,GL,64.1835,-51.7216,18.21,73,40,19.57,scattered clouds
364,Pauini,BR,-7.7136,-66.9764,93.67,44,26,5.32,scattered clouds
365,Tumen,CN,42.9661,129.8425,9.45,59,86,10.83,overcast clouds
366,Mitsamiouli,KM,-11.3847,43.2844,84.49,61,20,8.05,few clouds
367,Sinnamary,GF,5.3833,-52.95,82.99,70,99,10.87,overcast clouds
368,Mbigou,GA,-1.9005,11.906,78.08,75,100,3.62,light rain
369,Bridlington,GB,54.0831,-0.1919,42.03,89,51,3.0,broken clouds
370,Loiza,PR,18.4313,-65.8802,84.45,71,40,14.97,scattered clouds
371,Sao Miguel Do Araguaia,BR,-13.275,-50.1628,85.51,59,95,3.27,overcast clouds
372,Zhezkazgan,KZ,47.8043,67.7144,12.18,92,75,8.95,mist
373,Ust-Tsilma,RU,65.441,52.1498,8.1,98,100,4.12,overcast clouds
374,Komsomolskiy,UZ,40.4272,71.7189,41.72,70,100,2.3,overcast clouds
375,Shieli,KZ,44.1667,66.75,16.93,78,0,4.74,clear sky
376,Huichapan,MX,20.3833,-99.65,55.54,83,86,6.73,overcast clouds
377,Colorado,BR,-22.8375,-51.9731,92.01,33,48,8.97,scattered clouds
378,Zarichne,UA,51.8126,26.129,20.64,94,88,5.17,overcast clouds
379,Serdobsk,RU,52.4586,44.2169,24.3,64,29,5.39,scattered clouds
380,Grootfontein,NA,-19.5667,18.1167,91.69,16,6,13.29,clear sky
381,Kintampo,GH,8.0563,-1.7306,95.81,22,53,3.13,broken clouds
382,Mount Pleasant,US,32.7941,-79.8626,53.26,42,0,13.8,clear sky
383,Asau,RO,46.4333,26.4,29.32,81,100,3.11,overcast clouds
384,Nanortalik,GL,60.1432,-45.2371,26.96,76,4,31.5,clear sky
385,Nemuro,JP,43.3236,145.575,29.41,49,7,23.29,clear sky
386,Husavik,IS,66.0449,-17.3389,37.17,72,2,18.43,clear sky
387,Dandong,CN,40.1292,124.3947,18.95,29,0,2.3,clear sky
388,Karachi,PK,24.9056,67.0822,69.62,46,5,4.61,haze
389,Codrington,AU,-38.2667,141.9667,47.84,89,2,7.4,clear sky
390,Baglan,AF,36.1307,68.7083,50.25,72,100,4.47,overcast clouds
391,Vilhena,BR,-12.7406,-60.1458,80.82,78,40,9.22,scattered clouds
392,Bam,IR,29.106,58.357,61.54,29,0,5.21,clear sky
393,Birnin Kebbi,NG,12.4539,4.1975,93.29,14,81,3.69,broken clouds
394,Berlevag,NO,70.8578,29.0864,33.8,87,69,6.8,broken clouds
395,Ozinki,RU,51.1786,49.6769,21.16,73,8,6.78,clear sky
396,Nakhon Phanom,TH,17.3333,104.4167,76.68,68,95,11.65,overcast clouds
397,Mangrol,IN,21.1167,70.1167,76.01,62,0,6.06,clear sky
398,Torbay,CA,47.6666,-52.7314,39.38,87,100,26.46,light rain
399,Nago,JP,26.5881,127.9761,64.83,78,100,17.31,overcast clouds
400,Corsicana,US,32.0954,-96.4689,44.62,56,0,9.22,clear sky
401,Tartus,SY,34.889,35.8866,66.81,63,11,2.84,few clouds
402,Spassk-Ryazanskiy,RU,54.4072,40.3806,16.81,93,100,4.05,overcast clouds
403,Tomatlan,MX,19.9333,-105.25,76.44,71,14,2.42,few clouds
404,Santa Flavia,IT,38.085,13.5351,60.58,70,93,3.0,overcast clouds
405,Andra,RU,62.5147,65.8878,-13.79,97,14,3.4,few clouds
406,Xiaoyi,CN,34.6178,109.703,29.14,38,92,4.38,overcast clouds
407,Floro,NO,61.5996,5.0328,40.96,75,40,9.22,scattered clouds
408,Bereda,ES,43.2686,-7.5406,53.58,77,0,4.16,clear sky
409,Boa Vista,BR,2.8197,-60.6733,84.18,54,75,11.5,light rain
410,San Luis,AR,-33.295,-66.3356,77.54,29,43,11.5,scattered clouds
411,College,US,64.8569,-147.8028,5.58,84,100,0.0,light snow
412,Buta,CD,2.7858,24.73,75.74,95,90,2.64,light rain
413,Acapulco,MX,16.8634,-99.8901,78.62,73,0,4.61,clear sky
414,Coos Bay,US,43.3665,-124.2179,38.93,97,100,9.22,overcast clouds
415,Placido De Castro,BR,-10.3353,-67.1856,95.58,37,61,6.22,broken clouds
416,Udachnyy,RU,66.4167,112.4,-15.56,75,99,14.27,overcast clouds
417,Pangai,TO,-19.8,-174.35,79.09,81,95,9.1,light rain
418,Stawell,AU,-37.05,142.7667,46.42,92,1,10.6,clear sky
419,Qasigiannguit,GL,68.8193,-51.1922,19.65,97,93,3.47,overcast clouds
420,Stornoway,GB,58.2093,-6.3865,52.03,98,75,18.41,light intensity drizzle
421,Jaroslaw,PL,50.0162,22.6778,31.91,86,56,8.46,broken clouds
422,Rocha,UY,-34.4833,-54.3333,82.83,60,91,5.48,overcast clouds
423,Brecksville,US,41.3198,-81.6268,29.61,73,91,8.01,overcast clouds
424,Mujiayingzi,CN,42.1167,118.7833,9.01,41,0,7.63,clear sky
425,Harnosand,SE,62.6323,17.9379,34.0,88,100,1.25,overcast clouds
426,Milkovo,RU,54.7167,158.6167,2.79,88,14,4.81,few clouds
427,Kincardine,GB,56.0667,-3.7167,48.81,97,100,4.21,overcast clouds
428,Kupang,ID,-10.1667,123.5833,79.32,83,95,2.91,overcast clouds
429,Pulaski,US,34.7668,-92.3001,40.32,52,75,11.01,broken clouds
430,Vila Franca Do Campo,PT,37.7167,-25.4333,63.19,68,45,7.94,scattered clouds
431,Sydney,AU,-33.8679,151.2073,63.72,73,75,11.5,broken clouds
432,Sioux Falls,US,43.55,-96.7003,25.09,66,20,19.57,few clouds
433,Luanda,AO,-8.8368,13.2343,81.41,72,13,13.56,few clouds
434,Araouane,ML,18.9048,-3.5265,85.91,10,87,7.65,overcast clouds
435,Sovetskiy,RU,61.3614,63.5842,-5.12,100,56,1.83,broken clouds
436,Coquimbo,CL,-29.9533,-71.3436,65.93,72,100,5.75,overcast clouds
437,Manggar,ID,-2.8833,108.2667,78.93,83,100,2.89,overcast clouds
438,Bubaque,GW,11.2833,-15.8333,81.46,48,46,8.72,scattered clouds
439,Kachug,RU,53.9606,105.8817,-6.2,84,100,8.1,overcast clouds
440,San Jose,US,37.3394,-121.895,53.69,78,100,20.71,overcast clouds
441,Fare,PF,-16.7,-151.0167,79.09,80,85,14.27,light rain
442,Yeppoon,AU,-23.1333,150.7333,65.98,85,20,6.42,few clouds
443,Harper,LR,4.375,-7.7169,82.72,69,100,7.36,overcast clouds
444,Nantucket,US,41.2835,-70.0995,41.14,52,3,29.64,clear sky
445,Isabela,PH,6.7085,121.9711,78.85,83,100,4.99,light rain
446,Porto Santo,PT,33.072,-16.3415,68.38,68,40,18.41,scattered clouds
447,Arroyo,ES,41.6096,-4.7969,50.04,64,0,12.66,clear sky
448,Shu,KZ,43.5983,73.7614,27.93,73,9,1.59,clear sky
449,Talas,TR,38.6908,35.5538,52.47,66,40,1.14,scattered clouds
450,Cayenne,GF,4.9333,-52.3333,84.24,70,100,11.5,overcast clouds
451,Tifton,US,31.4505,-83.5085,50.56,52,30,12.19,scattered clouds
452,Tamandare,BR,-8.7597,-35.1047,83.79,64,47,14.14,scattered clouds
453,Shingu,JP,33.7333,135.9833,43.41,79,62,6.46,broken clouds
454,Nerchinskiy Zavod,RU,51.3088,119.61,-13.54,99,100,3.24,overcast clouds
455,Halifax,CA,44.6453,-63.5724,44.6,81,75,21.85,broken clouds
456,Edzell,GB,56.8095,-2.6549,45.27,97,100,4.61,overcast clouds
457,Mozarlandia,BR,-14.7447,-50.5706,86.79,55,62,2.3,broken clouds
458,Naze,JP,28.3667,129.4833,58.12,73,100,18.05,overcast clouds
459,Pathein,MM,16.7833,94.7333,77.49,86,14,5.88,few clouds
460,Blairmore,CA,49.6,-114.4353,1.58,71,100,6.91,overcast clouds
461,Rajgarh,IN,28.6333,75.3833,67.84,21,8,3.76,clear sky
462,Balkanabat,TM,39.5108,54.3671,46.56,29,100,3.87,overcast clouds
463,Borogontsy,RU,62.6683,131.1683,-27.51,99,100,0.54,overcast clouds
464,Vengerovo,RU,55.6848,76.7471,-8.14,97,9,6.33,clear sky
465,Tucurui,BR,-3.7661,-49.6725,86.81,66,90,2.53,overcast clouds
466,Basco,PH,20.4487,121.9702,78.17,84,100,23.87,overcast clouds
467,Sharjah,AE,25.3573,55.4033,82.38,57,0,8.05,clear sky
468,Sulphur,US,30.2366,-93.3774,49.98,61,0,18.41,clear sky
469,Atasu,KZ,48.6814,71.6433,12.67,96,100,3.8,overcast clouds
470,Romans-Sur-Isere,FR,45.0464,5.0562,47.93,77,100,14.97,overcast clouds
471,Wattegama,LK,6.7989,81.4808,74.35,93,76,3.42,broken clouds
472,Namatanai,PG,-3.6667,152.4333,79.41,82,88,3.13,overcast clouds
473,Krasnovka,RU,48.8177,40.0923,27.86,38,50,16.8,scattered clouds
474,Tarrega,ES,41.647,1.1396,52.32,53,11,3.33,few clouds
475,Hovd,MN,48.0056,91.6419,-2.9,73,47,3.6,scattered clouds
476,Walvis Bay,NA,-22.9575,14.5053,66.09,65,25,25.21,scattered clouds
477,Whyalla,AU,-33.0333,137.5833,66.58,60,1,8.12,clear sky
478,Kidal,ML,18.4411,1.4078,87.39,12,60,3.04,broken clouds
479,Kavieng,PG,-2.5744,150.7967,81.91,73,84,3.65,broken clouds
480,Moreira Sales,BR,-24.0622,-53.0069,85.17,51,6,6.98,clear sky
481,Guerrero Negro,MX,27.9769,-114.0611,57.81,79,72,8.3,broken clouds
482,Trairi,BR,-3.2778,-39.2689,87.73,51,64,13.89,broken clouds
483,Martin,US,27.0837,-80.4164,80.96,83,48,1.99,scattered clouds
484,Noumea,NC,-22.2763,166.4572,82.0,99,100,4.94,overcast clouds
485,Yenagoa,NG,4.9247,6.2642,91.18,45,46,4.79,scattered clouds
486,Kyrylivka,UA,46.3759,35.3675,43.27,71,100,26.8,overcast clouds
487,Dwarka,IN,22.2394,68.9678,76.39,56,0,12.44,clear sky
488,Severo-Yeniseyskiy,RU,60.3725,93.0408,-22.65,100,100,3.49,overcast clouds
489,San Carlos De Bariloche,AR,-41.1456,-71.3082,62.35,29,0,5.75,clear sky
490,Maarianhamina,AX,60.0973,19.9348,37.26,87,100,4.61,overcast clouds
491,Svetlyy,RU,54.675,20.1347,33.85,87,100,7.87,overcast clouds
492,Bonavista,CA,48.6499,-53.1147,37.94,78,99,27.81,overcast clouds
493,Khasan,RU,42.4308,130.6434,15.19,56,5,16.67,clear sky
494,Alenquer,BR,-1.9417,-54.7383,87.49,61,89,3.29,light rain
495,Deputatskiy,RU,69.3,139.9,-13.43,98,100,5.46,light snow
496,Bima,ID,-8.4667,118.7167,76.86,92,98,3.56,overcast clouds
497,Namibe,AO,-15.1961,12.1522,73.87,74,67,13.98,broken clouds
498,Aban,RU,56.67,96.06,-5.19,99,100,4.97,overcast clouds
499,Manglaur,IN,29.8,77.8667,62.78,42,14,1.16,few clouds
500,Itaporanga,BR,-7.3044,-38.1503,87.12,46,70,7.87,broken clouds
501,Kizner,RU,56.2749,51.508,11.26,99,95,2.98,overcast clouds
502,Balezino,RU,57.9796,53.0106,4.96,98,58,3.47,broken clouds
503,Sibolga,ID,1.7427,98.7792,75.96,92,100,2.89,overcast clouds
504,Koslan,RU,63.4564,48.8989,15.24,97,100,2.84,overcast clouds
505,Camacupa,AO,-12.0167,17.4833,73.74,65,81,3.49,broken clouds
506,Muisne,EC,0.6,-80.0333,75.54,81,100,10.38,overcast clouds
507,Bilma,NE,18.6853,12.9164,80.67,15,10,3.91,clear sky
508,Feijo,BR,-8.1642,-70.3536,91.04,49,93,6.78,overcast clouds
509,Peterhead,GB,57.5058,-1.7981,46.8,94,100,19.55,overcast clouds
510,Briancon,FR,44.9,6.65,38.95,65,2,2.13,clear sky
511,Porto Murtinho,BR,-21.6989,-57.8825,96.55,33,91,4.07,moderate rain
512,Mabaruma,GY,8.2,-59.7833,85.48,59,53,5.08,broken clouds
513,Maumere,ID,-8.6199,122.2111,79.92,80,100,3.94,overcast clouds
514,Meulaboh,ID,4.1363,96.1285,75.94,90,100,0.38,overcast clouds
515,Taunggyi,MM,20.7833,97.0333,60.57,93,27,1.83,scattered clouds
516,Pochutla,MX,15.7432,-96.4661,82.81,56,38,0.72,scattered clouds
517,Wangqing,CN,43.3218,129.7634,5.56,69,98,6.73,overcast clouds
518,Taitung,TW,22.7583,121.1444,72.45,78,87,14.72,overcast clouds
519,Chipata,ZM,-13.6333,32.65,72.48,67,47,4.54,light rain
520,Alyangula,AU,-13.8483,136.4192,82.78,70,100,4.83,overcast clouds
521,Boende,CD,-0.2167,20.8667,74.57,91,99,3.15,moderate rain
522,Margate,GB,51.3813,1.3862,46.9,90,64,10.07,broken clouds
523,Broken Hill,AU,-31.95,141.4333,66.29,34,0,9.84,clear sky
524,Qinzhou,CN,21.95,108.6167,45.0,79,100,17.63,overcast clouds
525,Yumen,CN,40.2833,97.2,14.7,61,93,19.37,overcast clouds
526,Nagram,IN,26.6167,81.1333,62.65,31,0,2.91,clear sky
527,Sabang,ID,5.8933,95.3214,81.21,77,98,8.84,overcast clouds
528,Awjilah,LY,29.1081,21.2869,67.12,32,0,4.56,clear sky
529,Homer,US,59.6425,-151.5483,26.47,93,0,4.61,clear sky
530,Touros,BR,-5.1989,-35.4608,85.42,56,67,14.61,broken clouds
531,Roszke,HU,46.188,20.0337,41.31,74,98,5.06,overcast clouds
532,Karla,EE,59.3723,24.9275,31.98,89,75,10.36,broken clouds
533,Barberena,GT,14.3094,-90.3611,65.84,68,52,6.51,broken clouds
534,Norton,ZW,-17.8833,30.7,76.28,21,0,7.49,clear sky
535,Baculin,PH,7.4525,126.5842,76.89,88,100,4.23,overcast clouds
536,Kurilsk,RU,45.2333,147.8833,29.73,60,96,26.13,light snow
537,Bosaso,SO,11.2842,49.1816,79.09,73,27,7.99,scattered clouds
538,Hagere Hiywet,ET,8.9833,37.85,61.68,36,21,6.8,few clouds
539,Thinadhoo,MV,0.5333,72.9333,81.36,67,99,4.99,overcast clouds
540,Plettenberg Bay,ZA,-34.0527,23.3716,69.89,73,61,3.85,broken clouds
541,Batemans Bay,AU,-35.7167,150.1833,62.1,94,100,5.86,overcast clouds
542,Hami,CN,42.8,93.45,16.23,18,68,4.65,broken clouds
543,Nanhai,CN,30.1282,111.7784,37.08,63,100,4.38,overcast clouds
544,Talnakh,RU,69.4865,88.3972,-0.26,99,100,0.92,overcast clouds
545,Gigmoto,PH,13.7796,124.39,80.82,86,100,14.88,overcast clouds
546,The Valley,AI,18.217,-63.0578,82.54,65,40,12.66,scattered clouds
547,Hamilton,US,39.1834,-84.5333,31.5,65,0,4.61,clear sky
548,Saint Petersburg,RU,59.8944,30.2642,21.06,84,20,8.95,few clouds
549,Tabou,CI,4.423,-7.3528,82.58,70,87,8.1,overcast clouds
550,Lima,PE,-12.0432,-77.0282,68.25,78,0,6.91,clear sky
551,Palmas Bellas,PA,9.2319,-80.0867,82.35,76,15,9.08,light rain
552,Buraydah,SA,26.326,43.975,73.85,37,12,10.56,few clouds
553,Gagino,RU,55.2314,45.0339,5.25,96,22,1.41,few clouds
554,Tupaciguara,BR,-18.5922,-48.705,85.28,39,95,8.14,overcast clouds
555,Mayo,US,38.8876,-76.5119,41.25,47,0,11.5,clear sky
556,Baleshwar,IN,21.4942,86.9317,71.51,50,0,3.96,clear sky
557,Hirado,JP,33.3597,129.5531,39.38,54,100,10.27,overcast clouds
558,Inuvik,CA,68.3499,-133.7218,0.46,85,100,4.61,light snow
559,Hambantota,LK,6.1241,81.1185,77.34,100,40,0.0,scattered clouds
560,Hobyo,SO,5.3505,48.5268,81.09,73,100,15.95,light rain
561,Sioux Lookout,CA,50.1001,-91.917,10.47,92,100,4.61,overcast clouds
562,Krutinka,RU,56.0055,71.5113,-5.89,90,15,5.59,few clouds
563,Yar-Sale,RU,66.8333,70.8333,-6.36,94,15,8.52,few clouds
564,Elverum,NO,60.8819,11.5623,17.89,99,64,2.86,broken clouds
565,Kutum,SD,14.2,24.6667,78.26,20,33,9.44,scattered clouds
566,Dolores,AR,-36.3132,-57.6792,64.65,74,100,20.4,overcast clouds
567,Linhares,BR,-19.3911,-40.0722,80.82,83,91,8.28,overcast clouds
568,Sabha,LY,27.0377,14.4283,58.84,23,5,2.93,clear sky
569,Mopti,ML,14.6667,-4.0,96.84,14,0,6.91,clear sky
570,Nakhon Nayok,TH,14.1667,101.1,76.84,86,77,3.49,broken clouds
571,Panagar,IN,23.3,79.9833,62.17,53,0,4.05,clear sky
572,Maues,BR,-3.3836,-57.7186,88.7,57,100,3.02,heavy intensity rain
573,Pangkalanbuun,ID,-2.6833,111.6167,74.41,96,100,2.33,overcast clouds
574,Sao Joao Da Barra,BR,-21.6403,-41.0511,78.89,85,89,17.31,overcast clouds
575,Weiser,US,44.251,-116.9693,38.32,93,100,3.0,moderate rain
576,Waddan,LY,29.1614,16.139,62.47,31,2,5.44,clear sky
577,Honiara,SB,-9.4333,159.95,78.06,85,100,1.28,light rain
578,Mahanoro,MG,-19.9,48.8,75.94,83,20,6.89,few clouds
579,Assiniboia,CA,49.6334,-105.9845,15.62,86,100,3.44,snow
580,Adeje,ES,28.1227,-16.726,71.6,73,20,9.22,few clouds
581,Great Falls,US,47.5002,-111.3008,6.19,83,100,9.22,overcast clouds
582,Chirongui,YT,-12.9319,45.1483,82.33,70,16,5.66,few clouds
583,Shakawe,BW,-18.3667,21.85,93.06,12,0,7.11,clear sky
584,Danville,US,36.586,-79.395,41.43,47,75,11.01,broken clouds
585,Griffith,US,41.5284,-87.4237,24.04,71,0,6.91,clear sky
586,La Orilla,MX,17.9833,-102.2333,83.64,57,39,2.37,scattered clouds
587,Sarangani,PH,5.4033,125.4636,81.57,81,100,19.89,overcast clouds
588,Tukrah,LY,32.5341,20.5791,64.24,66,82,12.01,broken clouds
589,Cardoso,BR,-20.0819,-49.9142,93.07,30,99,7.87,overcast clouds
590,Havoysund,NO,70.9963,24.6622,37.63,90,100,9.51,overcast clouds
591,Tabatinga,BR,-4.2525,-69.9381,87.89,66,40,5.75,scattered clouds
592,Hamada,JP,34.8833,132.0833,43.29,62,100,16.08,overcast clouds
593,Guaraniacu,BR,-25.1008,-52.8781,77.76,65,18,3.62,few clouds
594,Roros,NO,62.5747,11.3842,24.64,86,75,1.14,broken clouds
595,Tocopilla,CL,-22.092,-70.1979,70.16,65,10,8.9,clear sky
596,Vila,PT,42.0304,-8.1588,48.7,48,0,2.82,clear sky
597,Oranjemund,NA,-28.55,16.4333,66.22,81,6,14.58,clear sky
598,Sola,VU,-13.8833,167.55,81.46,77,69,10.96,broken clouds
599,Eugene,US,44.0521,-123.0867,36.36,93,75,11.5,broken clouds
600,Dvinskoy,RU,62.1535,45.1175,16.16,90,100,1.99,overcast clouds
601,Westport,US,41.1415,-73.3579,41.04,53,40,18.41,scattered clouds
602,Atlantic City,US,39.3643,-74.4229,41.18,44,0,20.71,clear sky
603,Buala,SB,-8.145,159.5921,79.11,85,100,5.53,overcast clouds
604,Naryan-Mar,RU,67.6713,53.087,11.68,96,100,11.1,overcast clouds
605,Greenwood,US,34.1668,-82.1165,47.07,43,0,6.91,clear sky
606,Changji,CN,44.0167,87.3167,9.39,78,100,6.71,mist
607,Kohat,PK,33.582,71.4493,57.27,37,100,2.28,overcast clouds
608,Erzin,TR,36.9559,36.2,61.7,68,67,3.33,broken clouds
609,Vardo,NO,70.3705,31.1107,28.38,86,0,12.66,clear sky
610,Andrews,US,32.3187,-102.5457,42.08,54,99,3.0,overcast clouds
611,Ayagoz,KZ,47.9714,80.4392,18.63,94,100,12.21,overcast clouds
612,Harer,ET,9.3094,42.1258,61.32,21,65,9.82,broken clouds
613,San Lawrenz,MT,36.0553,14.204,60.85,71,4,9.98,clear sky
614,Leh,IN,34.1667,77.5833,27.1,34,100,1.74,overcast clouds
615,Miramar,US,25.9873,-80.2323,81.01,78,20,18.41,few clouds
616,Brownwood,US,31.7093,-98.9912,42.12,59,98,12.1,overcast clouds
617,Iranshahr,IR,27.2025,60.6848,71.94,18,0,4.61,clear sky
618,Male,MV,4.1748,73.5089,80.55,89,75,9.22,broken clouds
619,Grinnell,US,41.743,-92.7224,24.31,38,67,16.15,broken clouds
620,Bani,DO,18.2833,-70.3333,83.86,45,0,9.42,clear sky
621,Dalianwan,CN,39.0286,121.695,26.64,59,75,6.71,broken clouds
622,Blagoyevo,RU,63.3667,47.9167,17.31,97,100,2.82,overcast clouds
623,Ixtapa,MX,20.7,-105.2,72.63,73,40,4.61,scattered clouds
624,Asosa,ET,10.0667,34.5333,71.89,35,90,5.32,overcast clouds
625,Joura,IN,26.3411,77.8115,63.75,45,0,1.5,clear sky
626,Ahar,IR,38.4774,47.0699,35.58,94,100,4.05,overcast clouds
627,Ingraj Bazar,IN,25.0,88.15,67.75,44,0,6.13,clear sky
628,Nalut,LY,30.3333,10.85,56.98,32,66,0.63,broken clouds
629,Alexandria,EG,31.2156,29.9553,69.76,68,0,9.22,clear sky
630,Kloulklubed,PW,7.0419,134.2556,79.3,70,82,15.79,broken clouds
631,Bom Jesus,BR,-9.0744,-44.3586,77.56,78,96,4.52,overcast clouds
632,Mahina,PF,-17.5065,-149.489,74.97,88,75,4.61,light rain
633,Opuwo,NA,-18.0607,13.84,96.15,15,66,11.03,broken clouds
634,Sao Jose Da Coroa Grande,BR,-8.8978,-35.1478,83.34,64,55,14.88,broken clouds
635,Esna,EG,25.2934,32.554,77.02,27,0,10.0,clear sky
636,Benguela,AO,-12.5763,13.4055,78.66,80,74,9.93,moderate rain
637,La Union,PE,-5.4,-80.75,80.82,48,32,6.73,scattered clouds
638,Tres Palos,MX,18.1833,-101.6167,80.37,64,58,2.48,broken clouds
639,Usinsk,RU,65.9939,57.5281,-6.79,99,91,9.06,overcast clouds
640,Bud,US,39.447,-86.1758,28.81,68,50,1.07,scattered clouds
641,Kerema,PG,-7.9631,145.7785,77.38,87,94,3.94,overcast clouds
642,Bauchi,NG,10.5,10.0,87.71,18,15,6.11,few clouds
643,Shakhtinsk,KZ,49.71,72.5872,2.26,82,94,16.87,overcast clouds
644,Roald,NO,62.5833,6.1333,40.75,75,0,10.36,clear sky
645,Yeniseysk,RU,58.4497,92.1703,-15.66,100,66,1.01,broken clouds
646,Fuyang,CN,32.9,115.8167,33.35,54,100,4.29,overcast clouds
647,Caruray,PH,10.3094,119.0128,79.11,89,72,8.48,broken clouds
648,Kyzyl-Suu,KG,42.3414,78.0056,27.05,64,100,9.13,overcast clouds
649,Piranhas,BR,-16.4269,-51.8222,77.45,68,100,1.28,overcast clouds
650,Balkhash,KZ,46.844,74.9804,20.91,95,100,10.02,light snow
651,Mandurah,AU,-32.55,115.7,63.99,79,0,12.8,clear sky
652,Sisimiut,GL,66.9395,-53.6735,7.16,88,64,10.27,broken clouds
653,Zarinsk,RU,53.7074,84.9493,-6.7,97,7,4.09,clear sky
654,Puerto Leguizamo,CO,-0.1934,-74.7819,89.83,48,24,8.01,few clouds
655,Abnub,EG,27.2696,31.1511,73.62,31,0,7.78,clear sky
656,Quesnel,CA,52.9999,-122.5029,-16.1,76,100,0.0,overcast clouds
657,Ishigaki,JP,24.3448,124.1572,69.93,100,75,18.41,broken clouds
658,Taicheng,CN,38.731,113.228,13.98,19,27,2.13,scattered clouds
659,Aitape,PG,-3.1374,142.3475,78.4,86,100,7.36,overcast clouds
660,Kisoro,UG,-1.2854,29.685,59.38,94,100,0.87,light rain
661,Mackay,AU,-21.15,149.2,67.68,80,99,15.14,overcast clouds
662,Ternate,ID,0.8,127.4,80.62,81,98,4.85,overcast clouds
663,Tutoia,BR,-2.7619,-42.2744,85.12,66,58,15.93,broken clouds
664,Lorengau,PG,-2.0226,147.2712,80.42,79,98,4.94,overcast clouds
665,Kibala,TD,9.1104,18.3463,89.69,21,97,4.29,overcast clouds
666,Emba,KZ,48.8264,58.1442,15.55,80,11,9.26,few clouds
667,Kamenka,RU,51.3223,42.7678,23.86,65,90,6.8,overcast clouds
668,Los Algarrobos,PA,8.5,-82.4333,81.01,78,40,1.14,scattered clouds
669,Tebingtinggi,ID,3.3285,99.1625,74.53,93,100,4.97,overcast clouds
670,Ca Mau,VN,9.1769,105.15,76.59,89,100,6.08,overcast clouds
671,Hjelset,NO,62.7833,7.4833,37.18,93,100,8.05,mist
672,Kasongo-Lunda,CD,-6.4667,16.8167,81.14,71,86,3.18,overcast clouds
673,Templin,DE,53.1186,13.5022,34.18,85,100,5.39,overcast clouds
